<?xml version="1.0" encoding="utf-8"?>
<Radars>
  <!-- ORSR -->
  <Radar Name="OGA_ORSR_NR1" Type="SSR_ModeC" Elevation="441" MaxRange="250">
    <Lat>39.977500</Lat>
    <Long>139.709722</Long>
  </Radar>
  <Radar Name="OGA_ORSR_NR2" Type="SSR_ModeC" Elevation="441" MaxRange="250">
    <Lat>39.977778</Lat>
    <Long>139.709722</Long>
  </Radar>
  <Radar Name="IWAKI_ORSR_NR1" Type="SSR_ModeC" Elevation="2401" MaxRange="250">
    <Lat>37.111945</Lat>
    <Long>140.795556</Long>
  </Radar>
  <Radar Name="IWAKI_ORSR_NR2" Type="SSR_ModeC" Elevation="2401" MaxRange="250">
    <Lat>37.111945</Lat>
    <Long>140.795556</Long>
  </Radar>
  <Radar Name="HACHIJO_ORSR_NR1" Type="SSR_ModeC" Elevation="1066" MaxRange="250">
    <Lat>33.079167</Lat>
    <Long>139.815000</Long>
  </Radar>
  <Radar Name="HACHIJO_ORSR_NR2" Type="SSR_ModeC" Elevation="1066" MaxRange="250">
    <Lat>33.079167</Lat>
    <Long>139.815000</Long>
  </Radar>
  <Radar Name="FUKUE_ORSR_NR1" Type="SSR_ModeC" Elevation="1033" MaxRange="250">
    <Lat>32.615000</Lat>
    <Long>128.712222</Long>
  </Radar>
  <Radar Name="FUKUE_ORSR_NR2" Type="SSR_ModeC" Elevation="1033" MaxRange="250">
    <Lat>32.614722</Lat>
    <Long>128.712500</Long>
  </Radar>
  <Radar Name="KUMEJIMA_ORSR_NR1" Type="SSR_ModeC" Elevation="846" MaxRange="250">
    <Lat>26.375556</Lat>
    <Long>126.779445</Long>
  </Radar>
  <Radar Name="KUMEJIMA_ORSR_NR2" Type="SSR_ModeC" Elevation="846" MaxRange="250">
    <Lat>26.375278</Lat>
    <Long>126.779445</Long>
  </Radar>

  <!-- ARSR -->
  <Radar Name="YOKOTSUDAKE_ARSR" Type="SSR_ModeC" Elevation="3854" MaxRange="200">
    <Lat>41.937778</Lat>
    <Long>140.771389</Long>
  </Radar>
  <Radar Name="JOBONZAN_ARSR" Type="SSR_ModeC" Elevation="1551" MaxRange="200">
    <Lat>38.500833</Lat>
    <Long>141.358611</Long>
  </Radar>
  <Radar Name="NOTO_ARSR" Type="SSR_ModeC" Elevation="751" MaxRange="200">
    <Lat>37.295833</Lat>
    <Long>136.954722</Long>
  </Radar>
  <Radar Name="KUSHIRO_ARSR" Type="SSR_ModeC" Elevation="475" MaxRange="200">
    <Lat>43.028333</Lat>
    <Long>144.553889</Long>
  </Radar>
  <Radar Name="HACHINOHE_ARSR" Type="SSR_ModeC" Elevation="501" MaxRange="200">
    <Lat>40.500833</Lat>
    <Long>141.591111</Long>
  </Radar>
  <Radar Name="YAMADA_ARSR" Type="SSR_ModeC" Elevation="127" MaxRange="200">
    <Lat>35.779445</Lat>
    <Long>140.527222</Long>
  </Radar>
  <Radar Name="HAKONE_ARSR" Type="SSR_ModeC" Elevation="2946" MaxRange="200">
    <Lat>35.179445</Lat>
    <Long>139.065000</Long>
  </Radar>
  <Radar Name="MIKAWA_ARSR" Type="SSR_ModeC" Elevation="1463" MaxRange="200">
    <Lat>34.868611</Lat>
    <Long>137.215278</Long>
  </Radar>
  <Radar Name="MIKUNISAN_ARSR" Type="SSR_ModeC" Elevation="2906" MaxRange="200">
    <Lat>34.363056</Lat>
    <Long>135.485278</Long>
  </Radar>
  <Radar Name="IMANOYAMA_ARSR" Type="SSR_ModeC" Elevation="2857" MaxRange="200">
    <Lat>32.857222</Lat>
    <Long>132.846667</Long>
  </Radar>
  <Radar Name="HIRATA_ARSR" Type="SSR_ModeC" Elevation="1364" MaxRange="200">
    <Lat>35.471389</Lat>
    <Long>132.788056</Long>
  </Radar>
  <Radar Name="SANGUNZAN_ARSR" Type="SSR_ModeC" Elevation="3047" MaxRange="200">
    <Lat>33.555556</Lat>
    <Long>130.583333</Long>
  </Radar>
  <Radar Name="KASEDA_ARSR" Type="SSR_ModeC" Elevation="1689" MaxRange="200">
    <Lat>31.380556</Lat>
    <Long>130.267222</Long>
  </Radar>
  <Radar Name="AMAMI_ARSR" Type="SSR_ModeC" Elevation="1043" MaxRange="200">
    <Lat>28.415833</Lat>
    <Long>129.570556</Long>
  </Radar>
  <Radar Name="YAEDAKE_ARSR" Type="SSR_ModeC" Elevation="1486" MaxRange="200">
    <Lat>26.636389</Lat>
    <Long>127.929167</Long>
  </Radar>
  <Radar Name="MIYAKOJIMA_ARSR" Type="SSR_ModeC" Elevation="170" MaxRange="200">
    <Lat>24.788611</Lat>
    <Long>125.295000</Long>
  </Radar>

  <!-- ASR/SSR -->
  <Radar Name="RJCO_ASR" Type="PRI" Elevation="56" MaxRange="60">
    <Lat>43.117500</Lat>
    <Long>141.381389</Long>
  </Radar>
  <Radar Name="RJCO_SSR" Type="SSR_ModeC" Elevation="56" MaxRange="100">
    <Lat>43.117500</Lat>
    <Long>141.381389</Long>
  </Radar>
  <Radar Name="RJCC_ASR" Type="PRI" Elevation="79" MaxRange="60">
    <Lat>42.775278</Lat>
    <Long>141.692500</Long>
  </Radar>
  <Radar Name="RJCC_SSR" Type="SSR_ModeC" Elevation="79" MaxRange="100">
    <Lat>42.775278</Lat>
    <Long>141.692500</Long>
  </Radar>
  <Radar Name="RJCM_SSR" Type="SSR_ModeC" Elevation="139" MaxRange="100">
    <Lat>43.880556</Lat>
    <Long>144.164167</Long>
  </Radar>
  <Radar Name="RJCB_SSR" Type="SSR_ModeC" Elevation="520" MaxRange="100">
    <Lat>42.733333</Lat>
    <Long>143.217222</Long>
  </Radar>
  <Radar Name="RJEC_SSR" Type="SSR_ModeC" Elevation="720" MaxRange="100">
    <Lat>43.670833</Lat>
    <Long>142.447500</Long>
  </Radar>
  <Radar Name="RJCH_ASR" Type="PRI" Elevation="141" MaxRange="60">
    <Lat>41.775556</Lat>
    <Long>140.818611</Long>
  </Radar>
  <Radar Name="RJCH_SSR" Type="SSR_ModeC" Elevation="141" MaxRange="100">
    <Lat>41.775556</Lat>
    <Long>140.818611</Long>
  </Radar>
  <Radar Name="RJSM_ASR" Type="PRI" Elevation="149" MaxRange="60">
    <Lat>40.713056</Lat>
    <Long>141.374722</Long>
  </Radar>
  <Radar Name="RJSM_SSR" Type="SSR_ModeC" Elevation="149" MaxRange="100">
    <Lat>40.713056</Lat>
    <Long>141.374722</Long>
  </Radar>
  <Radar Name="RJSS_ASR" Type="PRI" Elevation="167" MaxRange="60">
    <Lat>38.143889</Lat>
    <Long>140.919445</Long>
  </Radar>
  <Radar Name="RJSS_SSR" Type="SSR_ModeC" Elevation="167" MaxRange="100">
    <Lat>38.143889</Lat>
    <Long>140.919445</Long>
  </Radar>
  <Radar Name="RJSN_ASR" Type="PRI" Elevation="34" MaxRange="60">
    <Lat>37.950278</Lat>
    <Long>139.109722</Long>
  </Radar>
  <Radar Name="RJSN_SSR" Type="SSR_ModeC" Elevation="34" MaxRange="100">
    <Lat>37.950278</Lat>
    <Long>139.109722</Long>
  </Radar>
  <Radar Name="RJSA_SSR" Type="SSR_ModeC" Elevation="680" MaxRange="100">
    <Lat>40.733333</Lat>
    <Long>140.688611</Long>
  </Radar>
  <Radar Name="RJSK_SSR" Type="SSR_ModeC" Elevation="335" MaxRange="100">
    <Lat>39.615556</Lat>
    <Long>140.218611</Long>
  </Radar>
  <Radar Name="RJTT_ASR_NR1" Type="PRI" Elevation="51" MaxRange="60">
    <Lat>35.553333</Lat>
    <Long>139.781111</Long>
  </Radar>
  <Radar Name="RJTT_SSR_NR1" Type="SSR_ModeC" Elevation="51" MaxRange="100">
    <Lat>35.553333</Lat>
    <Long>139.781111</Long>
  </Radar>
  <Radar Name="RJTT_ASR_NR2" Type="PRI" Elevation="51" MaxRange="60">
    <Lat>35.553333</Lat>
    <Long>139.781111</Long>
  </Radar>
  <Radar Name="RJTT_SSR_NR2" Type="SSR_ModeC" Elevation="51" MaxRange="100">
    <Lat>35.553333</Lat>
    <Long>139.781111</Long>
  </Radar>
  <Radar Name="RJAH_ASR" Type="PRI" Elevation="137" MaxRange="60">
    <Lat>36.185556</Lat>
    <Long>140.429722</Long>
  </Radar>
  <Radar Name="RJAH_SSR" Type="SSR_ModeC" Elevation="137" MaxRange="100">
    <Lat>36.185556</Lat>
    <Long>140.429722</Long>
  </Radar>
    <Radar Name="RJAA_ASR_NR1" Type="PRI" Elevation="165" MaxRange="60">
    <Lat>35.765278</Lat>
    <Long>140.385556</Long>
  </Radar>
  <Radar Name="RJAA_SSR_NR1" Type="SSR_ModeC" Elevation="165" MaxRange="100">
    <Lat>35.765278</Lat>
    <Long>140.385556</Long>
  </Radar>
  <Radar Name="RJAA_ASR_NR2" Type="PRI" Elevation="165" MaxRange="60">
    <Lat>35.765278</Lat>
    <Long>140.385556</Long>
  </Radar>
  <Radar Name="RJAA_SSR_NR2" Type="SSR_ModeC" Elevation="165" MaxRange="100">
    <Lat>35.765278</Lat>
    <Long>140.385556</Long>
  </Radar>
  <Radar Name="RJNK_ASR" Type="PRI" Elevation="52" MaxRange="60">
    <Lat>36.389445</Lat>
    <Long>136.411389</Long>
  </Radar>
  <Radar Name="RJNK_SSR" Type="SSR_ModeC" Elevation="52" MaxRange="100">
    <Lat>36.389445</Lat>
    <Long>136.411389</Long>
  </Radar>
  <Radar Name="RJNA_ASR" Type="PRI" Elevation="76" MaxRange="60">
    <Lat>35.255000</Lat>
    <Long>136.924445</Long>
  </Radar>
  <Radar Name="RJNA_SSR" Type="SSR_ModeC" Elevation="76" MaxRange="100">
    <Lat>35.255000</Lat>
    <Long>136.924445</Long>
  </Radar>
  <Radar Name="RJGG_ASR_NR1" Type="PRI" Elevation="76" MaxRange="60">
    <Lat>34.858333</Lat>
    <Long>136.805278</Long>
  </Radar>
  <Radar Name="RJGG_SSR_NR1" Type="SSR_ModeC" Elevation="76" MaxRange="100">
    <Lat>34.858333</Lat>
    <Long>136.805278</Long>
  </Radar>
  <Radar Name="RJGG_ASR_NR2" Type="PRI" Elevation="76" MaxRange="60">
    <Lat>34.858333</Lat>
    <Long>136.805278</Long>
  </Radar>
  <Radar Name="RJGG_SSR_NR2" Type="SSR_ModeC" Elevation="76" MaxRange="100">
    <Lat>34.858333</Lat>
    <Long>136.805278</Long>
  </Radar>
  <Radar Name="RJOO_ASR_NR1" Type="PRI" Elevation="79" MaxRange="60">
    <Lat>34.797778</Lat>
    <Long>135.430556</Long>
  </Radar>
  <Radar Name="RJOO_SSR_NR1" Type="SSR_ModeC" Elevation="79" MaxRange="100">
    <Lat>34.797778</Lat>
    <Long>135.430556</Long>
  </Radar>
  <Radar Name="RJOO_ASR_NR2" Type="PRI" Elevation="79" MaxRange="60">
    <Lat>34.783056</Lat>
    <Long>135.433333</Long>
  </Radar>
  <Radar Name="RJOO_SSR_NR2" Type="SSR_ModeC" Elevation="79" MaxRange="100">
    <Lat>34.783056</Lat>
    <Long>135.433333</Long>
  </Radar>
  <Radar Name="RJBB_ASR_NR1" Type="PRI" Elevation="47" MaxRange="60">
    <Lat>34.443333</Lat>
    <Long>135.253056</Long>
  </Radar>
  <Radar Name="RJBB_SSR_NR1" Type="SSR_ModeC" Elevation="47" MaxRange="100">
    <Lat>34.443333</Lat>
    <Long>135.253056</Long>
  </Radar>
  <Radar Name="RJBB_ASR_NR2" Type="PRI" Elevation="47" MaxRange="60">
    <Lat>34.427778</Lat>
    <Long>135.228611</Long>
  </Radar>
  <Radar Name="RJBB_SSR_NR2" Type="SSR_ModeC" Elevation="47" MaxRange="100">
    <Lat>34.427778</Lat>
    <Long>135.228611</Long>
  </Radar>
  <Radar Name="RJOS_ASR" Type="PRI" Elevation="67" MaxRange="60">
    <Lat>34.130833</Lat>
    <Long>134.597778</Long>
  </Radar>
  <Radar Name="RJOS_SSR" Type="SSR_ModeC" Elevation="67" MaxRange="100">
    <Lat>34.130833</Lat>
    <Long>134.597778</Long>
  </Radar>
  <Radar Name="RJOT_ASR" Type="PRI" Elevation="637" MaxRange="60">
    <Lat>34.220833</Lat>
    <Long>134.020833</Long>
  </Radar>
  <Radar Name="RJOT_SSR" Type="SSR_ModeC" Elevation="637" MaxRange="100">
    <Lat>34.220833</Lat>
    <Long>134.020833</Long>
  </Radar>
  <Radar Name="RJOK_ASR" Type="PRI" Elevation="59" MaxRange="60">
    <Lat>33.545833</Lat>
    <Long>133.677500</Long>
  </Radar>
  <Radar Name="RJOK_SSR" Type="SSR_ModeC" Elevation="59" MaxRange="100">
    <Lat>33.545833</Lat>
    <Long>133.677500</Long>
  </Radar>
  <Radar Name="RJOH_ASR" Type="PRI" Elevation="43" MaxRange="60">
    <Lat>35.500833</Lat>
    <Long>133.236945</Long>
  </Radar>
  <Radar Name="RJOH_SSR" Type="SSR_ModeC" Elevation="43" MaxRange="100">
    <Lat>35.500833</Lat>
    <Long>133.236945</Long>
  </Radar>
  <Radar Name="RJOA_ASR" Type="PRI" Elevation="1116" MaxRange="60">
    <Lat>34.433889</Lat>
    <Long>132.916111</Long>
  </Radar>
  <Radar Name="RJOA_SSR" Type="SSR_ModeC" Elevation="1116" MaxRange="100">
    <Lat>34.433889</Lat>
    <Long>132.916111</Long>
  </Radar>
  <Radar Name="RJOI_ASR" Type="PRI" Elevation="40" MaxRange="60">
    <Lat>34.145000</Lat>
    <Long>132.246945</Long>
  </Radar>
  <Radar Name="RJOI_SSR" Type="SSR_ModeC" Elevation="40" MaxRange="100">
    <Lat>34.145000</Lat>
    <Long>132.246945</Long>
  </Radar>
  <Radar Name="RJOM_SSR" Type="SSR_ModeC" Elevation="43" MaxRange="100">
    <Lat>33.827222</Lat>
    <Long>132.699722</Long>
  </Radar>
  <Radar Name="RJFR_SSR" Type="SSR_ModeC" Elevation="51" MaxRange="100">
    <Lat>33.845556</Lat>
    <Long>131.035000</Long>
  </Radar>
  <Radar Name="RJFZ_ASR" Type="PRI" Elevation="58" MaxRange="60">
    <Lat>33.678056</Lat>
    <Long>131.034445</Long>
  </Radar>
  <Radar Name="RJFZ_SSR" Type="SSR_ModeC" Elevation="58" MaxRange="100">
    <Lat>33.678056</Lat>
    <Long>131.034445</Long>
  </Radar>
  <Radar Name="RJFF_ASR_NR1" Type="PRI" Elevation="60" MaxRange="60">
    <Lat>33.588611</Lat>
    <Long>130.440278</Long>
  </Radar>
  <Radar Name="RJFF_SSR_NR1" Type="SSR_ModeC" Elevation="60" MaxRange="100">
    <Lat>33.588611</Lat>
    <Long>130.440278</Long>
  </Radar>
  <Radar Name="RJFF_ASR_NR2" Type="PRI" Elevation="60" MaxRange="60">
    <Lat>33.580000</Lat>
    <Long>130.446667</Long>
  </Radar>
  <Radar Name="RJFF_SSR_NR2" Type="SSR_ModeC" Elevation="60" MaxRange="100">
    <Lat>33.580000</Lat>
    <Long>130.446667</Long>
  </Radar>
  <Radar Name="RJFK_ASR_NR1" Type="PRI" Elevation="921" MaxRange="60">
    <Lat>31.803333</Lat>
    <Long>130.719445</Long>
  </Radar>
  <Radar Name="RJFK_SSR_NR1" Type="SSR_ModeC" Elevation="921" MaxRange="100">
    <Lat>31.803333</Lat>
    <Long>130.719445</Long>
  </Radar>
  <Radar Name="RJFK_ASR_NR2" Type="PRI" Elevation="921" MaxRange="60">
    <Lat>31.803333</Lat>
    <Long>130.719445</Long>
  </Radar>
  <Radar Name="RJFK_SSR_NR2" Type="SSR_ModeC" Elevation="921" MaxRange="100">
    <Lat>31.803333</Lat>
    <Long>130.719445</Long>
  </Radar>
  <Radar Name="RJFM_ASR_NR1" Type="PRI" Elevation="49" MaxRange="60">
    <Lat>31.877222</Lat>
    <Long>131.448611</Long>
  </Radar>
  <Radar Name="RJFM_SSR_NR1" Type="SSR_ModeC" Elevation="49" MaxRange="100">
    <Lat>31.877222</Lat>
    <Long>131.448611</Long>
  </Radar>
  <Radar Name="RJFM_ASR_NR2" Type="PRI" Elevation="49" MaxRange="60">
    <Lat>31.877222</Lat>
    <Long>131.448611</Long>
  </Radar>
  <Radar Name="RJFM_SSR_NR2" Type="SSR_ModeC" Elevation="49" MaxRange="100">
    <Lat>31.877222</Lat>
    <Long>131.448611</Long>
  </Radar>
  <Radar Name="ROAH_ASR_NR1" Type="PRI" Elevation="41" MaxRange="60">
    <Lat>26.193333</Lat>
    <Long>127.639722</Long>
  </Radar>
  <Radar Name="ROAH_SSR_NR1" Type="SSR_ModeC" Elevation="41" MaxRange="100">
    <Lat>26.193333</Lat>
    <Long>127.639722</Long>
  </Radar>
  <Radar Name="ROAH_ASR_NR2" Type="PRI" Elevation="41" MaxRange="60">
    <Lat>26.193333</Lat>
    <Long>127.639722</Long>
  </Radar>
  <Radar Name="ROAH_SSR_NR2" Type="SSR_ModeC" Elevation="41" MaxRange="100">
    <Lat>26.193333</Lat>
    <Long>127.639722</Long>
  </Radar>
  <Radar Name="RJFT_ASR" Type="PRI" Elevation="662" MaxRange="60">
    <Lat>32.830278</Lat>
    <Long>130.844722</Long>
  </Radar>
  <Radar Name="RJFT_SSR" Type="SSR_ModeC" Elevation="662" MaxRange="100">
    <Lat>32.830278</Lat>
    <Long>130.844722</Long>
  </Radar>
  <Radar Name="RJFU_ASR" Type="PRI" Elevation="38" MaxRange="60">
    <Lat>32.916111</Lat>
    <Long>129.907778</Long>
  </Radar>
  <Radar Name="RJFU_SSR" Type="SSR_ModeC" Elevation="38" MaxRange="100">
    <Lat>32.916111</Lat>
    <Long>129.907778</Long>
  </Radar>
  <Radar Name="RJFO_ASR" Type="PRI" Elevation="47" MaxRange="60">
    <Lat>33.478333</Lat>
    <Long>131.730833</Long>
  </Radar>
  <Radar Name="RJFO_SSR" Type="SSR_ModeC" Elevation="47" MaxRange="100">
    <Lat>33.478333</Lat>
    <Long>131.730833</Long>
  </Radar>
  <Radar Name="RORS_ASR" Type="PRI" Elevation="55" MaxRange="60">
    <Lat>24.827222</Lat>
    <Long>125.140833</Long>
  </Radar>
  <Radar Name="RORS_SSR" Type="SSR_ModeC" Elevation="55" MaxRange="100">
    <Lat>24.827222</Lat>
    <Long>125.140833</Long>
  </Radar>
  <Radar Name="ROIG_ASR" Type="PRI" Elevation="132" MaxRange="60">
    <Lat>24.386111</Lat>
    <Long>124.244722</Long>
  </Radar>
  <Radar Name="ROIG_SSR" Type="SSR_ModeC" Elevation="132" MaxRange="100">
    <Lat>24.386111</Lat>
    <Long>124.244722</Long>
  </Radar>
  <Radar Name="RJAW_ASR" Type="PRI" Elevation="424" MaxRange="60">
    <Lat>24.386111</Lat>
    <Long>124.244722</Long>
  </Radar>
  <Radar Name="RJAW_SSR" Type="SSR_ModeC" Elevation="424" MaxRange="100">
    <Lat>24.784167</Lat>
    <Long>141.322778</Long>
  </Radar>

  <!-- ASDE/MLAT -->
  <Radar Name="RORA_MLAT" Type="SMR_ADSB" Elevation="38" MaxRange="3">
    <Lat>26.592778</Lat>
    <Long>127.240278</Long>
  </Radar>
  <Radar Name="RJOE_MLAT" Type="SMR_ADSB" Elevation="20" MaxRange="3">
    <Lat>34.533889</Lat>
    <Long>136.671667</Long>
  </Radar>
  <Radar Name="RJSK_MLAT" Type="SMR_ADSB" Elevation="305" MaxRange="3">
    <Lat>39.615556</Lat>
    <Long>140.218611</Long>
  </Radar>
  <Radar Name="RJDA_MLAT" Type="SMR_ADSB" Elevation="340" MaxRange="3">
    <Lat>32.482222</Lat>
    <Long>130.158889</Long>
  </Radar>
  <Radar Name="RJKA_MLAT" Type="SMR_ADSB" Elevation="14" MaxRange="3">
    <Lat>28.430833</Lat>
    <Long>129.712500</Long>
  </Radar>
  <Radar Name="RJSA_MLAT" Type="SMR_ADSB" Elevation="650" MaxRange="3">
    <Lat>40.733333</Lat>
    <Long>140.688611</Long>
  </Radar>
  <Radar Name="RJEC_MLAT" Type="SMR_ADSB" Elevation="690" MaxRange="3">
    <Lat>43.670833</Lat>
    <Long>142.447500</Long>
  </Radar>
  <Radar Name="RJCA_MLAT" Type="SMR_ADSB" Elevation="377" MaxRange="3">
    <Lat>43.794445</Lat>
    <Long>142.365000</Long>
  </Radar>
  <Radar Name="RJFA_MLAT" Type="SMR_ADSB" Elevation="98" MaxRange="3">
    <Lat>33.881389</Lat>
    <Long>130.651667</Long>
  </Radar>
  <Radar Name="RJTA_MLAT" Type="SMR_ADSB" Elevation="205" MaxRange="3">
    <Lat>35.454722</Lat>
    <Long>139.450000</Long>
  </Radar>
  <Radar Name="RJTF_MLAT" Type="SMR_ADSB" Elevation="89" MaxRange="3">
    <Lat>35.671667</Lat>
    <Long>139.528056</Long>
  </Radar>
  <Radar Name="RJFE_MLAT" Type="SMR_ADSB" Elevation="251" MaxRange="3">
    <Lat>32.666389</Lat>
    <Long>128.832778</Long>
  </Radar>
  <Radar Name="RJNF_MLAT" Type="SMR_ADSB" Elevation="18" MaxRange="3">
    <Lat>36.142778</Lat>
    <Long>136.223889</Long>
  </Radar>
  <Radar Name="RJFF_MLAT" Type="SMR_ADSB" Elevation="30" MaxRange="3">
    <Lat>33.584445</Lat>
    <Long>130.451667</Long>
  </Radar>
  <Radar Name="RJSF_MLAT" Type="SMR_ADSB" Elevation="1220" MaxRange="3">
    <Lat>37.227500</Lat>
    <Long>140.428056</Long>
  </Radar>
  <Radar Name="ROTM_MLAT" Type="SMR_ADSB" Elevation="246" MaxRange="3">
    <Lat>26.266667</Lat>
    <Long>127.750000</Long>
  </Radar>
  <Radar Name="RJNG_MLAT" Type="SMR_ADSB" Elevation="128" MaxRange="3">
    <Lat>35.394445</Lat>
    <Long>136.869445</Long>
  </Radar>
  <Radar Name="RJTH_MLAT" Type="SMR_ADSB" Elevation="301" MaxRange="3">
    <Lat>33.115000</Lat>
    <Long>139.785833</Long>
  </Radar>
  <Radar Name="RJSH_MLAT" Type="SMR_ADSB" Elevation="152" MaxRange="3">
    <Lat>40.551945</Lat>
    <Long>141.467222</Long>
  </Radar>
  <Radar Name="RJCH_MLAT" Type="SMR_ADSB" Elevation="112" MaxRange="3">
    <Lat>41.770000</Lat>
    <Long>140.821945</Long>
  </Radar>
  <Radar Name="RJNH_MLAT" Type="SMR_ADSB" Elevation="150" MaxRange="3">
    <Lat>34.750278</Lat>
    <Long>137.703056</Long>
  </Radar>
  <Radar Name="RJSI_MLAT" Type="SMR_ADSB" Elevation="294" MaxRange="3">
    <Lat>39.428611</Lat>
    <Long>141.135278</Long>
  </Radar>
  <Radar Name="RJOA_MLAT" Type="SMR_ADSB" Elevation="114" MaxRange="3">
    <Lat>34.436111</Lat>
    <Long>132.919445</Long>
  </Radar>
  <Radar Name="RJOF_MLAT" Type="SMR_ADSB" Elevation="7" MaxRange="3">
    <Lat>34.034445</Lat>
    <Long>131.546389</Long>
  </Radar>
  <Radar Name="RJAH_MLAT" Type="SMR_ADSB" Elevation="107" MaxRange="3">
    <Lat>36.181667</Lat>
    <Long>140.414722</Long>
  </Radar>
  <Radar Name="RJDB_MLAT" Type="SMR_ADSB" Elevation="41" MaxRange="3">
    <Lat>33.749167</Lat>
    <Long>129.785833</Long>
  </Radar>
  <Radar Name="RJTJ_MLAT" Type="SMR_ADSB" Elevation="295" MaxRange="3">
    <Lat>35.841945</Lat>
    <Long>139.410556</Long>
  </Radar>
  <Radar Name="RJOI_MLAT" Type="SMR_ADSB" Elevation="10" MaxRange="3">
    <Lat>34.145000</Lat>
    <Long>132.246945</Long>
  </Radar>
  <Radar Name="RJOW_MLAT" Type="SMR_ADSB" Elevation="177" MaxRange="3">
    <Lat>34.676389</Lat>
    <Long>131.790278</Long>
  </Radar>
  <Radar Name="RJAW_MLAT" Type="SMR_ADSB" Elevation="419" MaxRange="3">
    <Lat>24.784167</Lat>
    <Long>141.322778</Long>
  </Radar>
  <Radar Name="RJOC_MLAT" Type="SMR_ADSB" Elevation="6" MaxRange="3">
    <Lat>35.413611</Lat>
    <Long>132.890000</Long>
  </Radar>
  <Radar Name="RODN_MLAT" Type="SMR_ADSB" Elevation="143" MaxRange="3">
    <Lat>26.355611</Lat>
    <Long>127.767633</Long>
  </Radar>
  <Radar Name="RJFK_MLAT" Type="SMR_ADSB" Elevation="891" MaxRange="3">
    <Lat>31.803333</Lat>
    <Long>130.719445</Long>
  </Radar>
  <Radar Name="RJFY_MLAT" Type="SMR_ADSB" Elevation="202" MaxRange="3">
    <Lat>31.368056</Lat>
    <Long>130.838056</Long>
  </Radar>
  <Radar Name="RJAK_MLAT" Type="SMR_ADSB" Elevation="85" MaxRange="3">
    <Lat>36.034722</Lat>
    <Long>140.192778</Long>
  </Radar>
  <Radar Name="RJSU_MLAT" Type="SMR_ADSB" Elevation="23" MaxRange="3">
    <Lat>38.235556</Lat>
    <Long>140.923056</Long>
  </Radar>
  <Radar Name="RJKI_MLAT" Type="SMR_ADSB" Elevation="15" MaxRange="3">
    <Lat>28.321389</Lat>
    <Long>129.928056</Long>
  </Radar>
  <Radar Name="RJTK_MLAT" Type="SMR_ADSB" Elevation="10" MaxRange="3">
    <Lat>35.395000</Lat>
    <Long>139.913056</Long>
  </Radar>
  <Radar Name="RORK_MLAT" Type="SMR_ADSB" Elevation="71" MaxRange="3">
    <Lat>25.944722</Lat>
    <Long>131.326945</Long>
  </Radar>
    <Radar Name="RJFR_MLAT" Type="SMR_ADSB" Elevation="21" MaxRange="3">
    <Lat>33.845556</Lat>
    <Long>131.035000</Long>
  </Radar>
  <Radar Name="RJBE_MLAT" Type="SMR_ADSB" Elevation="18" MaxRange="3">
    <Lat>34.632778</Lat>
    <Long>135.223889</Long>
  </Radar>
  <Radar Name="RJOK_MLAT" Type="SMR_ADSB" Elevation="29" MaxRange="3">
    <Lat>33.546111</Lat>
    <Long>133.669445</Long>
  </Radar>
  <Radar Name="RJBK_MLAT" Type="SMR_ADSB" Elevation="0" MaxRange="3">
    <Lat>34.591389</Lat>
    <Long>133.933333</Long>
  </Radar>
    <Radar Name="RJAZ_MLAT" Type="SMR_ADSB" Elevation="454" MaxRange="3">
    <Lat>34.189445</Lat>
    <Long>139.133611</Long>
  </Radar>
  <Radar Name="RJFT_MLAT" Type="SMR_ADSB" Elevation="632" MaxRange="3">
    <Lat>32.837222</Lat>
    <Long>130.855278</Long>
  </Radar>
  <Radar Name="ROKJ_MLAT" Type="SMR_ADSB" Elevation="23" MaxRange="3">
    <Lat>26.363611</Lat>
    <Long>126.713889</Long>
  </Radar>
  <Radar Name="RJCK_MLAT" Type="SMR_ADSB" Elevation="311" MaxRange="3">
    <Lat>43.040833</Lat>
    <Long>144.193056</Long>
  </Radar>
  <Radar Name="RJAF_MLAT" Type="SMR_ADSB" Elevation="2157" MaxRange="3">
    <Lat>36.166667</Lat>
    <Long>137.922778</Long>
  </Radar>
    <Radar Name="RJST_MLAT" Type="SMR_ADSB" Elevation="7" MaxRange="3">
    <Lat>38.403056</Lat>
    <Long>141.211945</Long>
  </Radar>
  <Radar Name="RJOM_MLAT" Type="SMR_ADSB" Elevation="13" MaxRange="3">
    <Lat>33.827222</Lat>
    <Long>132.699722</Long>
  </Radar>
  <Radar Name="RJCM_MLAT" Type="SMR_ADSB" Elevation="109" MaxRange="3">
    <Lat>43.880556</Lat>
    <Long>144.164167</Long>
  </Radar>
  <Radar Name="RJDM_MLAT" Type="SMR_ADSB" Elevation="56" MaxRange="3">
    <Lat>33.325278</Lat>
    <Long>130.413611</Long>
  </Radar>
  <Radar Name="RJOH_MLAT" Type="SMR_ADSB" Elevation="13" MaxRange="3">
    <Lat>35.493333</Lat>
    <Long>133.239167</Long>
  </Radar>
  <Radar Name="ROMD_MLAT" Type="SMR_ADSB" Elevation="159" MaxRange="3">
    <Lat>25.846667</Lat>
    <Long>131.263611</Long>
  </Radar>
  <Radar Name="RJAM_MLAT" Type="SMR_ADSB" Elevation="22" MaxRange="3">
    <Lat>24.289722</Lat>
    <Long>153.979167</Long>
  </Radar>
  <Radar Name="RJSM_MLAT" Type="SMR_ADSB" Elevation="119" MaxRange="3">
    <Lat>40.703056</Lat>
    <Long>141.368333</Long>
  </Radar>
  <Radar Name="RJTQ_MLAT" Type="SMR_ADSB" Elevation="65" MaxRange="3">
    <Lat>34.073611</Lat>
    <Long>139.560278</Long>
  </Radar>
  <Radar Name="ROMY_MLAT" Type="SMR_ADSB" Elevation="140" MaxRange="3">
    <Lat>24.782778</Lat>
    <Long>125.295000</Long>
  </Radar>
  <Radar Name="RJFM_MLAT" Type="SMR_ADSB" Elevation="19" MaxRange="3">
    <Lat>31.877222</Lat>
    <Long>131.448611</Long>
  </Radar>
  <Radar Name="RJEB_MLAT" Type="SMR_ADSB" Elevation="58" MaxRange="3">
    <Lat>44.304167</Lat>
    <Long>143.404167</Long>
  </Radar>
  <Radar Name="RJFU_MLAT" Type="SMR_ADSB" Elevation="8" MaxRange="3">
    <Lat>32.916945</Lat>
    <Long>129.913611</Long>
  </Radar>
  <Radar Name="RJNA_MLAT" Type="SMR_ADSB" Elevation="46" MaxRange="3">
    <Lat>35.255000</Lat>
    <Long>136.924445</Long>
  </Radar>
  <Radar Name="RJCN_MLAT" Type="SMR_ADSB" Elevation="214" MaxRange="3">
    <Lat>43.577500</Lat>
    <Long>144.960000</Long>
  </Radar>
  <Radar Name="RJBD_MLAT" Type="SMR_ADSB" Elevation="293" MaxRange="3">
    <Lat>33.662222</Lat>
    <Long>135.364445</Long>
  </Radar>
  <Radar Name="ROIG_MLAT" Type="SMR_ADSB" Elevation="102" MaxRange="3">
    <Lat>24.396389</Lat>
    <Long>124.245000</Long>
  </Radar>
  <Radar Name="RJSN_MLAT" Type="SMR_ADSB" Elevation="5" MaxRange="3">
    <Lat>37.955833</Lat>
    <Long>139.111667</Long>
  </Radar>
  <Radar Name="RJAN_MLAT" Type="SMR_ADSB" Elevation="94" MaxRange="3">
    <Lat>34.369445</Lat>
    <Long>139.268611</Long>
  </Radar>
  <Radar Name="RJNW_MLAT" Type="SMR_ADSB" Elevation="718" MaxRange="3">
    <Lat>37.293333</Lat>
    <Long>136.962222</Long>
  </Radar>
  <Radar Name="RJFN_MLAT" Type="SMR_ADSB" Elevation="259" MaxRange="3">
    <Lat>32.083611</Lat>
    <Long>131.451389</Long>
  </Radar>
  <Radar Name="RJCB_MLAT" Type="SMR_ADSB" Elevation="490" MaxRange="3">
    <Lat>42.733333</Lat>
    <Long>143.217222</Long>
  </Radar>
  <Radar Name="RJSR_MLAT" Type="SMR_ADSB" Elevation="276" MaxRange="3">
    <Lat>40.191945</Lat>
    <Long>140.371667</Long>
  </Radar>
  <Radar Name="RJFO_MLAT" Type="SMR_ADSB" Elevation="17" MaxRange="3">
    <Lat>33.479445</Lat>
    <Long>131.737222</Long>
  </Radar>
  <Radar Name="RJDO_MLAT" Type="SMR_ADSB" Elevation="25" MaxRange="3">
    <Lat>33.190833</Lat>
    <Long>129.090278</Long>
  </Radar>
  <Radar Name="RJOB_MLAT" Type="SMR_ADSB" Elevation="785" MaxRange="3">
    <Lat>34.756945</Lat>
    <Long>133.855278</Long>
  </Radar>
  <Radar Name="RJNO_MLAT" Type="SMR_ADSB" Elevation="262" MaxRange="3">
    <Lat>36.178333</Lat>
    <Long>133.323333</Long>
  </Radar>
  <Radar Name="RJKB_MLAT" Type="SMR_ADSB" Elevation="88" MaxRange="3">
    <Lat>27.431667</Lat>
    <Long>128.705556</Long>
  </Radar>
  <Radar Name="RJEO_MLAT" Type="SMR_ADSB" Elevation="161" MaxRange="3">
    <Lat>42.071667</Lat>
    <Long>139.432778</Long>
  </Radar>
  <Radar Name="RJSO_MLAT" Type="SMR_ADSB" Elevation="24" MaxRange="3">
    <Lat>41.232778</Lat>
    <Long>141.132222</Long>
  </Radar>
  <Radar Name="RJDU_MLAT" Type="SMR_ADSB" Elevation="19" MaxRange="3">
    <Lat>32.928056</Lat>
    <Long>129.934167</Long>
  </Radar>
  <Radar Name="RJTO_MLAT" Type="SMR_ADSB" Elevation="124" MaxRange="3">
    <Lat>34.781945</Lat>
    <Long>139.360278</Long>
  </Radar>
  <Radar Name="RJOZ_MLAT" Type="SMR_ADSB" Elevation="13" MaxRange="3">
    <Lat>34.046945</Lat>
    <Long>131.052500</Long>
  </Radar>
  <Radar Name="RJCR_MLAT" Type="SMR_ADSB" Elevation="85" MaxRange="3">
    <Lat>45.455000</Lat>
    <Long>141.039167</Long>
  </Radar>
  <Radar Name="RJER_MLAT" Type="SMR_ADSB" Elevation="99" MaxRange="3">
    <Lat>45.241945</Lat>
    <Long>141.187500</Long>
  </Radar>
  <Radar Name="RJSD_MLAT" Type="SMR_ADSB" Elevation="75" MaxRange="3">
    <Lat>38.061111</Lat>
    <Long>138.414167</Long>
  </Radar>
  <Radar Name="RJFS_MLAT" Type="SMR_ADSB" Elevation="6" MaxRange="3">
    <Lat>33.149722</Lat>
    <Long>130.302222</Long>
  </Radar>
  <Radar Name="RJCO_MLAT" Type="SMR_ADSB" Elevation="26" MaxRange="3">
    <Lat>43.117500</Lat>
    <Long>141.381389</Long>
  </Radar>
  <Radar Name="RJSS_MLAT" Type="SMR_ADSB" Elevation="6" MaxRange="3">
    <Lat>38.139722</Lat>
    <Long>140.916945</Long>
  </Radar>
  <Radar Name="RJTL_MLAT" Type="SMR_ADSB" Elevation="96" MaxRange="3">
    <Lat>35.798889</Lat>
    <Long>140.012222</Long>
  </Radar>
  <Radar Name="RORS_MLAT" Type="SMR_ADSB" Elevation="25" MaxRange="3">
    <Lat>24.826667</Lat>
    <Long>125.144722</Long>
  </Radar>
  <Radar Name="RJNY_MLAT" Type="SMR_ADSB" Elevation="23" MaxRange="3">
    <Lat>34.812778</Lat>
    <Long>138.298056</Long>
  </Radar>
  <Radar Name="RJNS_MLAT" Type="SMR_ADSB" Elevation="433" MaxRange="3">
    <Lat>34.796111</Lat>
    <Long>138.189445</Long>
  </Radar>
  <Radar Name="RJSY_MLAT" Type="SMR_ADSB" Elevation="72" MaxRange="3">
    <Lat>38.812222</Lat>
    <Long>139.787222</Long>
  </Radar>
  <Radar Name="RJTC_MLAT" Type="SMR_ADSB" Elevation="313" MaxRange="3">
    <Lat>35.710833</Lat>
    <Long>139.403056</Long>
  </Radar>
  <Radar Name="RJBT_MLAT" Type="SMR_ADSB" Elevation="578" MaxRange="3">
    <Lat>35.512778</Lat>
    <Long>134.786945</Long>
  </Radar>
  <Radar Name="RJOT_MLAT" Type="SMR_ADSB" Elevation="607" MaxRange="3">
    <Lat>34.214167</Lat>
    <Long>134.015556</Long>
  </Radar>
  <Radar Name="RJFG_MLAT" Type="SMR_ADSB" Elevation="768" MaxRange="3">
    <Lat>30.605000</Lat>
    <Long>130.991667</Long>
  </Radar>
  <Radar Name="RORT_MLAT" Type="SMR_ADSB" Elevation="34" MaxRange="3">
    <Lat>24.653889</Lat>
    <Long>124.675278</Long>
  </Radar>
  <Radar Name="RJTE_MLAT" Type="SMR_ADSB" Elevation="10" MaxRange="3">
    <Lat>34.987500</Lat>
    <Long>139.831945</Long>
  </Radar>
  <Radar Name="RJCT_MLAT" Type="SMR_ADSB" Elevation="281" MaxRange="3">
    <Lat>42.890278</Lat>
    <Long>143.158333</Long>
  </Radar>
  <Radar Name="RJKN_MLAT" Type="SMR_ADSB" Elevation="8" MaxRange="3">
    <Lat>27.836389</Lat>
    <Long>128.881389</Long>
  </Radar>
  <Radar Name="RJOS_MLAT" Type="SMR_ADSB" Elevation="37" MaxRange="3">
    <Lat>34.132222</Lat>
    <Long>134.609167</Long>
  </Radar>
  <Radar Name="RJOR_MLAT" Type="SMR_ADSB" Elevation="48" MaxRange="3">
    <Lat>35.530000</Lat>
    <Long>134.165000</Long>
  </Radar>
  <Radar Name="RJNT_MLAT" Type="SMR_ADSB" Elevation="77" MaxRange="3">
    <Lat>36.648333</Lat>
    <Long>137.187500</Long>
  </Radar>
  <Radar Name="RJFZ_MLAT" Type="SMR_ADSB" Elevation="28" MaxRange="3">
    <Lat>33.685000</Lat>
    <Long>131.040278</Long>
  </Radar>
  <Radar Name="RJDT_MLAT" Type="SMR_ADSB" Elevation="207" MaxRange="3">
    <Lat>34.285000</Lat>
    <Long>129.330556</Long>
  </Radar>
  <Radar Name="RJTU_MLAT" Type="SMR_ADSB" Elevation="335" MaxRange="3">
    <Lat>36.514445</Lat>
    <Long>139.871111</Long>
  </Radar>
  <Radar Name="RJCW_MLAT" Type="SMR_ADSB" Elevation="27" MaxRange="3">
    <Lat>45.404445</Lat>
    <Long>141.802222</Long>
  </Radar>
  <Radar Name="RJFC_MLAT" Type="SMR_ADSB" Elevation="122" MaxRange="3">
    <Lat>30.385556</Lat>
    <Long>130.659167</Long>
  </Radar>
  <Radar Name="RJSC_MLAT" Type="SMR_ADSB" Elevation="345" MaxRange="3">
    <Lat>38.411945</Lat>
    <Long>140.371111</Long>
  </Radar>
  <Radar Name="RJDC_MLAT" Type="SMR_ADSB" Elevation="15" MaxRange="3">
    <Lat>33.930000</Lat>
    <Long>131.278611</Long>
  </Radar>
  <Radar Name="RJOY_MLAT" Type="SMR_ADSB" Elevation="33" MaxRange="3">
    <Lat>34.596667</Lat>
    <Long>135.600556</Long>
  </Radar>
  <Radar Name="RJTY_MLAT" Type="SMR_ADSB" Elevation="462" MaxRange="3">
    <Lat>35.748611</Lat>
    <Long>139.348611</Long>
  </Radar>
  <Radar Name="ROYN_MLAT" Type="SMR_ADSB" Elevation="49" MaxRange="3">
    <Lat>24.467500</Lat>
    <Long>122.979722</Long>
  </Radar>
  <Radar Name="RORY_MLAT" Type="SMR_ADSB" Elevation="47" MaxRange="3">
    <Lat>27.043889</Lat>
    <Long>128.401667</Long>
  </Radar>
  <Radar Name="RJOP_MLAT" Type="SMR_ADSB" Elevation="8" MaxRange="3">
    <Lat>34.005278</Lat>
    <Long>134.626389</Long>
  </Radar>
  <Radar Name="RJBM_MLAT" Type="SMR_ADSB" Elevation="19" MaxRange="3">
    <Lat>35.490556</Lat>
    <Long>135.377222</Long>
  </Radar>
  <Radar Name="RJFH_MLAT" Type="SMR_ADSB" Elevation="20" MaxRange="3">
    <Lat>33.677500</Lat>
    <Long>130.390833</Long>
  </Radar>
  <Radar Name="RJTS_MLAT" Type="SMR_ADSB" Elevation="1306" MaxRange="3">
    <Lat>36.434722</Lat>
    <Long>138.953056</Long>
  </Radar>
  <Radar Name="RJTI_MLAT" Type="SMR_ADSB" Elevation="16" MaxRange="3">
    <Lat>35.636111</Lat>
    <Long>139.839445</Long>
  </Radar>
  <Radar Name="RJTR_MLAT" Type="SMR_ADSB" Elevation="367" MaxRange="3">
    <Lat>35.513611</Lat>
    <Long>139.393611</Long>
  </Radar>

  <Radar Name="RJCC_ASDE" Type="SMR" Elevation="69" MaxRange="3">
    <Lat>42.775278</Lat>
    <Long>141.692500</Long>
  </Radar>
  <Radar Name="RJCC_MLAT" Type="SMR_ADSB" Elevation="69" MaxRange="3">
    <Lat>42.775278</Lat>
    <Long>141.692500</Long>
  </Radar>
  <Radar Name="RJSM_ASDE" Type="SMR" Elevation="119" MaxRange="3">
    <Lat>40.703056</Lat>
    <Long>141.368333</Long>
  </Radar>
  <Radar Name="RJSM_MLAT" Type="SMR_ADSB" Elevation="119" MaxRange="3">
    <Lat>40.703056</Lat>
    <Long>141.368333</Long>
  </Radar>
  <Radar Name="RJAA_ASDE" Type="SMR" Elevation="135" MaxRange="3">
    <Lat>35.765278</Lat>
    <Long>140.385556</Long>
  </Radar>
  <Radar Name="RJAA_MLAT" Type="SMR_ADSB" Elevation="135" MaxRange="3">
    <Lat>35.765278</Lat>
    <Long>140.385556</Long>
  </Radar>
  <Radar Name="RJTT_ASDE" Type="SMR" Elevation="21" MaxRange="3">
    <Lat>35.553333</Lat>
    <Long>139.781111</Long>
  </Radar>
  <Radar Name="RJTT_MLAT" Type="SMR_ADSB" Elevation="21" MaxRange="3">
    <Lat>35.553333</Lat>
    <Long>139.781111</Long>
  </Radar>
  <Radar Name="RJGG_ASDE" Type="SMR" Elevation="12" MaxRange="3">
    <Lat>34.858333</Lat>
    <Long>136.805278</Long>
  </Radar>
  <Radar Name="RJGG_MLAT" Type="SMR_ADSB" Elevation="12" MaxRange="3">
    <Lat>34.858333</Lat>
    <Long>136.805278</Long>
  </Radar>
  <Radar Name="RJNK_ASDE" Type="SMR" Elevation="22" MaxRange="3">
    <Lat>36.393889</Lat>
    <Long>136.407500</Long>
  </Radar>
  <Radar Name="RJNK_MLAT" Type="SMR_ADSB" Elevation="22" MaxRange="3">
    <Lat>36.393889</Lat>
    <Long>136.407500</Long>
  </Radar>
  <Radar Name="RJOO_ASDE" Type="SMR" Elevation="39" MaxRange="3">
    <Lat>34.784445</Lat>
    <Long>135.439167</Long>
  </Radar>
  <Radar Name="RJOO_MLAT" Type="SMR_ADSB" Elevation="39" MaxRange="3">
    <Lat>34.784445</Lat>
    <Long>135.439167</Long>
  </Radar>
  <Radar Name="RJBB_ASDE" Type="SMR" Elevation="17" MaxRange="3">
    <Lat>34.434167</Lat>
    <Long>135.232778</Long>
  </Radar>
  <Radar Name="RJBB_MLAT" Type="SMR_ADSB" Elevation="17" MaxRange="3">
    <Lat>34.434167</Lat>
    <Long>135.232778</Long>
  </Radar>
  <Radar Name="RJFF_ASDE" Type="SMR" Elevation="30" MaxRange="3">
    <Lat>33.584445</Lat>
    <Long>130.451667</Long>
  </Radar>
  <Radar Name="RJFF_MLAT" Type="SMR_ADSB" Elevation="30" MaxRange="3">
    <Lat>33.584445</Lat>
    <Long>130.451667</Long>
  </Radar>
  <Radar Name="ROAH_ASDE" Type="SMR" Elevation="11" MaxRange="3">
    <Lat>33.584445</Lat>
    <Long>130.451667</Long>
  </Radar>
  <Radar Name="ROAH_MLAT" Type="SMR_ADSB" Elevation="11" MaxRange="3">
    <Lat>26.193333</Lat>
    <Long>127.639722</Long>
  </Radar>
</Radars>